date,ville,pays,nom,style,type,adresse,lat,long
1886,paris,,jean-pierre,Apollo,5,cochon,49.5077428,0.06969249999999999
1906,lyon,,charline,la Frairie,1,boeuf,49.5978382,0.2068677
2002,londres,,bernadette,Calypso,1,poulet,49.5032696,0.0819307
2021,milan,,claudine,AYG x Helios,6,boeuf,49.50341,0.122109
2045,bastia,,bernadette,AYG,4,poulet,49.50075289999999,0.12551
